{
  "categories": [
    {
      "category_name": "pelabuhan",
      "description": "Informasi Prakiraan Cuaca Pelabuhan",
      "data": [
        {
          "name": "Pelabuhan Ahmad Yani Ternate",
          "url": "https://maritim.bmkg.go.id/cuaca/pelabuhan/pelabuhan-ahmad-yani-ternate",
          "coordinate": { "lat": 0.7858, "lon": 127.3881 }
        },
        {
          "name": "Pelabuhan Bastiong",
          "url": "https://maritim.bmkg.go.id/cuaca/pelabuhan/pelabuhan-bastiong",
          "coordinate": { "lat": 0.7675, "lon": 127.3789 }
        },
        {
          "name": "Pelabuhan Sofifi",
          "url": "https://maritim.bmkg.go.id/cuaca/pelabuhan/pelabuhan-sofifi",
          "coordinate": { "lat": 0.7306, "lon": 127.5750 }
        },
        {
          "name": "Pelabuhan Rum",
          "url": "https://maritim.bmkg.go.id/cuaca/pelabuhan/pelabuhan-rum",
          "coordinate": { "lat": 0.6861, "lon": 127.4194 }
        },
        {
          "name": "Pelabuhan Dufa-Dufa",
          "url": "https://maritim.bmkg.go.id/cuaca/pelabuhan/pelabuhan-dufa-dufa",
          "coordinate": { "lat": 0.8114, "lon": 127.3889 }
        },
        {
          "name": "Pelabuhan Goto",
          "url": "https://maritim.bmkg.go.id/cuaca/pelabuhan/pelabuhan-goto",
          "coordinate": { "lat": 0.6547, "lon": 127.4619 }
        },
        {
          "name": "Pelabuhan Jailolo",
          "url": "https://maritim.bmkg.go.id/cuaca/pelabuhan/pelabuhan-jailolo",
          "coordinate": { "lat": 1.0594, "lon": 127.4697 }
        },
        {
          "name": "Pelabuhan Hiri",
          "url": "https://maritim.bmkg.go.id/cuaca/pelabuhan/pelabuhan-hiri",
          "coordinate": { "lat": 0.8833, "lon": 127.3167 }
        },
        {
          "name": "Pelabuhan Laigoma",
          "url": "https://maritim.bmkg.go.id/cuaca/pelabuhan/pelabuhan-laigoma",
          "coordinate": { "lat": -0.0167, "lon": 127.3333 }
        },
        {
          "name": "Pelabuhan Daruba",
          "url": "https://maritim.bmkg.go.id/cuaca/pelabuhan/pelabuhan-daruba",
          "coordinate": { "lat": 2.0519, "lon": 128.2981 }
        },
        {
          "name": "Pelabuhan Sidangoli",
          "url": "https://maritim.bmkg.go.id/cuaca/pelabuhan/pelabuhan-sidangoli",
          "coordinate": { "lat": 0.8986, "lon": 127.5022 }
        },
        {
          "name": "Pelabuhan Loloda",
          "url": "https://maritim.bmkg.go.id/cuaca/pelabuhan/pelabuhan-loloda",
          "coordinate": { "lat": 1.9500, "lon": 127.7500 }
        },
        {
          "name": "Pelabuhan Dodola",
          "url": "https://maritim.bmkg.go.id/cuaca/pelabuhan/pelabuhan-dodola",
          "coordinate": { "lat": 2.1056, "lon": 128.1889 }
        },
        {
          "name": "Pelabuhan Maitara",
          "url": "https://maritim.bmkg.go.id/cuaca/pelabuhan/pelabuhan-maitara",
          "coordinate": { "lat": 0.7250, "lon": 127.3667 }
        },
        {
          "name": "Pelabuhan Kupal",
          "url": "https://maritim.bmkg.go.id/cuaca/pelabuhan/pelabuhan-kupal",
          "coordinate": { "lat": -0.6694, "lon": 127.4917 }
        },
        {
          "name": "Pelabuhan Kayoa",
          "url": "https://maritim.bmkg.go.id/cuaca/pelabuhan/pelabuhan-kayoa",
          "coordinate": { "lat": -0.0500, "lon": 127.4333 }
        },
        {
          "name": "Pelabuhan Babang",
          "url": "https://maritim.bmkg.go.id/cuaca/pelabuhan/pelabuhan-babang",
          "coordinate": { "lat": -0.6136, "lon": 127.6044 }
        },
        {
          "name": "Pelabuhan Subaim",
          "url": "https://maritim.bmkg.go.id/cuaca/pelabuhan/pelabuhan-subaim",
          "coordinate": { "lat": 1.2586, "lon": 128.3844 }
        },
        {
          "name": "Pelabuhan Mayau",
          "url": "https://maritim.bmkg.go.id/cuaca/pelabuhan/pelabuhan-mayau",
          "coordinate": { "lat": 1.1833, "lon": 126.6500 }
        },
        {
          "name": "Pelabuhan Moti",
          "url": "https://maritim.bmkg.go.id/cuaca/pelabuhan/pelabuhan-moti",
          "coordinate": { "lat": 0.4500, "lon": 127.3833 }
        },
        {
          "name": "Pelabuhan Obi",
          "url": "https://maritim.bmkg.go.id/cuaca/pelabuhan/pelabuhan-obi",
          "coordinate": { "lat": -1.4833, "lon": 127.7500 }
        },
        {
          "name": "Pelabuhan Dowora",
          "url": "https://maritim.bmkg.go.id/cuaca/pelabuhan/pelabuhan-dowora",
          "coordinate": { "lat": -0.8167, "lon": 128.0500 }
        },
        {
          "name": "Pelabuhan Guruapin",
          "url": "https://maritim.bmkg.go.id/cuaca/pelabuhan/pelabuhan-guruapin",
          "coordinate": { "lat": -0.0333, "lon": 127.4167 }
        },
        {
          "name": "Pelabuhan Maba",
          "url": "https://maritim.bmkg.go.id/cuaca/pelabuhan/pelabuhan-maba",
          "coordinate": { "lat": 0.7083, "lon": 128.4833 }
        },
        {
          "name": "Pelabuhan Tobelo",
          "url": "https://maritim.bmkg.go.id/cuaca/pelabuhan/pelabuhan-tobelo",
          "coordinate": { "lat": 1.7333, "lon": 128.0167 }
        },
        {
          "name": "Pelabuhan Dama",
          "url": "https://maritim.bmkg.go.id/cuaca/pelabuhan/pelabuhan-dama",
          "coordinate": { "lat": 2.0667, "lon": 127.7667 }
        },
        {
          "name": "Pelabuhan Busua",
          "url": "https://maritim.bmkg.go.id/cuaca/pelabuhan/pelabuhan-busua",
          "coordinate": { "lat": -0.3167, "lon": 127.3500 }
        },
        {
          "name": "Pelabuhan Makian",
          "url": "https://maritim.bmkg.go.id/cuaca/pelabuhan/pelabuhan-makian",
          "coordinate": { "lat": 0.3500, "lon": 127.4000 }
        },
        {
          "name": "Pelabuhan Indari",
          "url": "https://maritim.bmkg.go.id/cuaca/pelabuhan/pelabuhan-indari",
          "coordinate": { "lat": -0.4667, "lon": 127.4000 }
        },
        {
          "name": "Pelabuhan Mangole",
          "url": "https://maritim.bmkg.go.id/cuaca/pelabuhan/pelabuhan-mangole",
          "coordinate": { "lat": -1.8667, "lon": 125.8167 }
        },
        {
          "name": "Pelabuhan Tomara",
          "url": "https://maritim.bmkg.go.id/cuaca/pelabuhan/pelabuhan-tomara",
          "coordinate": { "lat": -1.5333, "lon": 128.1667 }
        },
        {
          "name": "Pelabuhan Weda",
          "url": "https://maritim.bmkg.go.id/cuaca/pelabuhan/pelabuhan-weda",
          "coordinate": { "lat": 0.3458, "lon": 127.9158 }
        },
        {
          "name": "Pelabuhan Buli",
          "url": "https://maritim.bmkg.go.id/cuaca/pelabuhan/pelabuhan-buli",
          "coordinate": { "lat": 0.8917, "lon": 128.2917 }
        },
        {
          "name": "Pelabuhan Tifure",
          "url": "https://maritim.bmkg.go.id/cuaca/pelabuhan/pelabuhan-tifure",
          "coordinate": { "lat": 0.9667, "lon": 126.3833 }
        },
        {
          "name": "Pelabuhan Sanana",
          "url": "https://maritim.bmkg.go.id/cuaca/pelabuhan/pelabuhan-sanana",
          "coordinate": { "lat": -2.0667, "lon": 125.9833 }
        },
        {
          "name": "Pelabuhan Patani",
          "url": "https://maritim.bmkg.go.id/cuaca/pelabuhan/pelabuhan-patani",
          "coordinate": { "lat": 0.3833, "lon": 128.7833 }
        },
        {
          "name": "Pelabuhan Bobong",
          "url": "https://maritim.bmkg.go.id/cuaca/pelabuhan/pelabuhan-bobong",
          "coordinate": { "lat": -1.8833, "lon": 124.3833 }
        },
        {
          "name": "Pelabuhan Gita",
          "url": "https://maritim.bmkg.go.id/cuaca/pelabuhan/pelabuhan-gita",
          "coordinate": { "lat": 0.5167, "lon": 127.5333 }
        },
        {
          "name": "Pelabuhan Loleo",
          "url": "https://maritim.bmkg.go.id/cuaca/pelabuhan/pelabuhan-loleo",
          "coordinate": { "lat": 0.6500, "lon": 127.6000 }
        },
        {
          "name": "Pelabuhan Saketa",
          "url": "https://maritim.bmkg.go.id/cuaca/pelabuhan/pelabuhan-saketa",
          "coordinate": { "lat": -0.6667, "lon": 127.7667 }
        },
        {
          "name": "Pelabuhan Kawasi",
          "url": "https://maritim.bmkg.go.id/cuaca/pelabuhan/pelabuhan-kawasi",
          "coordinate": { "lat": -1.5833, "lon": 127.4167 }
        },
        {
          "name": "Pelabuhan Tikong",
          "url": "https://maritim.bmkg.go.id/cuaca/pelabuhan/pelabuhan-tikong",
          "coordinate": { "lat": -1.8167, "lon": 124.5167 }
        },
        {
          "name": "Pelabuhan Laiwui",
          "url": "https://maritim.bmkg.go.id/cuaca/pelabuhan/pelabuhan-laiwui",
          "coordinate": { "lat": -1.3333, "lon": 127.6333 }
        },
        {
          "name": "Pelabuhan Jojame",
          "url": "https://maritim.bmkg.go.id/cuaca/pelabuhan/pelabuhan-jojame",
          "coordinate": { "lat": -0.3833, "lon": 127.5333 }
        },
        {
          "name": "Pelabuhan Falabisahaya",
          "url": "https://maritim.bmkg.go.id/cuaca/pelabuhan/pelabuhan-falabisahaya",
          "coordinate": { "lat": -1.9000, "lon": 125.2667 }
        },
        {
          "name": "Pelabuhan Pasipa",
          "url": "https://maritim.bmkg.go.id/cuaca/pelabuhan/pelabuhan-pasipa",
          "coordinate": { "lat": -1.3500, "lon": 127.3167 }
        },
        {
          "name": "Pelabuhan Bisui",
          "url": "https://maritim.bmkg.go.id/cuaca/pelabuhan/pelabuhan-bisui",
          "coordinate": { "lat": -0.8333, "lon": 127.7500 }
        },
        {
          "name": "Pelabuhan Mesa",
          "url": "https://maritim.bmkg.go.id/cuaca/pelabuhan/pelabuhan-mesa",
          "coordinate": { "lat": 0.4000, "lon": 127.8167 }
        },
        {
          "name": "Pelabuhan Mafa",
          "url": "https://maritim.bmkg.go.id/cuaca/pelabuhan/pelabuhan-mafa",
          "coordinate": { "lat": -0.7333, "lon": 128.0333 }
        },
        {
          "name": "Pelabuhan Gebe",
          "url": "https://maritim.bmkg.go.id/cuaca/pelabuhan/pelabuhan-gebe",
          "coordinate": { "lat": -0.0667, "lon": 129.4167 }
        }
      ]
    },
    {
      "category_name": "perairan",
      "description": "Informasi Prakiraan Cuaca Perairan",
      "data": [
        {
          "name": "Perairan Ternate",
          "url": "https://maritim.bmkg.go.id/cuaca/perairan/perairan-ternate",
          "coordinate": { "lat": 0.8000, "lon": 127.3333 }
        },
        {
          "name": "Perairan Barat Laut Morotai",
          "url": "https://maritim.bmkg.go.id/cuaca/perairan/perairan-barat-laut-morotai",
          "coordinate": { "lat": 2.6667, "lon": 128.1667 }
        },
        {
          "name": "Perairan Timur Laut Morotai",
          "url": "https://maritim.bmkg.go.id/cuaca/perairan/perairan-timur-laut-morotai",
          "coordinate": { "lat": 2.5000, "lon": 128.6667 }
        },
        {
          "name": "Perairan Barat Daya Morotai",
          "url": "https://maritim.bmkg.go.id/cuaca/perairan/perairan-barat-daya-morotai",
          "coordinate": { "lat": 2.0833, "lon": 128.1667 }
        },
        {
          "name": "Perairan Tenggara Morotai",
          "url": "https://maritim.bmkg.go.id/cuaca/perairan/perairan-tenggara-morotai",
          "coordinate": { "lat": 2.0000, "lon": 128.5000 }
        },
        {
          "name": "Perairan Kep. Loloda",
          "url": "https://maritim.bmkg.go.id/cuaca/perairan/perairan-kep-loloda",
          "coordinate": { "lat": 2.2000, "lon": 127.6667 }
        },
        {
          "name": "Perairan Kep. Batang Dua",
          "url": "https://maritim.bmkg.go.id/cuaca/perairan/perairan-kep-batang-dua",
          "coordinate": { "lat": 1.2500, "lon": 126.3333 }
        },
        {
          "name": "Perairan Halmahera Barat",
          "url": "https://maritim.bmkg.go.id/cuaca/perairan/perairan-halmahera-barat",
          "coordinate": { "lat": 1.3333, "lon": 127.3333 }
        },
        {
          "name": "Perairan Teluk Weda",
          "url": "https://maritim.bmkg.go.id/cuaca/perairan/teluk-weda",
          "coordinate": { "lat": 0.2500, "lon": 128.0833 }
        },
        {
          "name": "Perairan Timur Kep. Halmahera",
          "url": "https://maritim.bmkg.go.id/cuaca/perairan/perairan-timur-kep-halmahera",
          "coordinate": { "lat": 1.0000, "lon": 128.8333 }
        },
        {
          "name": "Perairan Gebe",
          "url": "https://maritim.bmkg.go.id/cuaca/perairan/perairan-gebe",
          "coordinate": { "lat": -0.0500, "lon": 129.5000 }
        },
        {
          "name": "Perairan Barat Kayoa",
          "url": "https://maritim.bmkg.go.id/cuaca/perairan/perairan-barat-kayoa",
          "coordinate": { "lat": -0.1667, "lon": 127.3333 }
        },
        {
          "name": "Perairan Timur Kayoa",
          "url": "https://maritim.bmkg.go.id/cuaca/perairan/perairan-timur-kayoa",
          "coordinate": { "lat": -0.0833, "lon": 127.5000 }
        },
        {
          "name": "Perairan Barat Bacan",
          "url": "https://maritim.bmkg.go.id/cuaca/perairan/perairan-barat-bacan",
          "coordinate": { "lat": -0.6667, "lon": 127.3333 }
        },
        {
          "name": "Perairan Timur Bacan",
          "url": "https://maritim.bmkg.go.id/cuaca/perairan/perairan-timur-bacan",
          "coordinate": { "lat": -0.6667, "lon": 127.8333 }
        },
        {
          "name": "Perairan Barat Laut Obi",
          "url": "https://maritim.bmkg.go.id/cuaca/perairan/perairan-barat-laut-obi",
          "coordinate": { "lat": -1.3333, "lon": 127.1667 }
        },
        {
          "name": "Perairan Barat Daya Obi",
          "url": "https://maritim.bmkg.go.id/cuaca/perairan/perairan-barat-daya-obi",
          "coordinate": { "lat": -1.6667, "lon": 127.1667 }
        },
        {
          "name": "Perairan Timur Laut Obi",
          "url": "https://maritim.bmkg.go.id/cuaca/perairan/perairan-timur-laut-obi",
          "coordinate": { "lat": -1.3333, "lon": 128.0000 }
        },
        {
          "name": "Perairan Tenggara Obi",
          "url": "https://maritim.bmkg.go.id/cuaca/perairan/perairan-tenggara-obi",
          "coordinate": { "lat": -1.6667, "lon": 128.0000 }
        },
        {
          "name": "Perairan Timur Obi",
          "url": "https://maritim.bmkg.go.id/cuaca/perairan/perairan-timur-obi",
          "coordinate": { "lat": -1.5000, "lon": 128.1667 }
        },
        {
          "name": "Perairan Utara Mangole",
          "url": "https://maritim.bmkg.go.id/cuaca/perairan/perairan-utara-mangole",
          "coordinate": { "lat": -1.7500, "lon": 125.8333 }
        },
        {
          "name": "Perairan Timur Sanana",
          "url": "https://maritim.bmkg.go.id/cuaca/perairan/perairan-timur-sanana",
          "coordinate": { "lat": -2.0000, "lon": 126.1667 }
        },
        {
          "name": "Perairan Barat Sanana",
          "url": "https://maritim.bmkg.go.id/cuaca/perairan/perairan-barat-sanana",
          "coordinate": { "lat": -2.0000, "lon": 125.8333 }
        },
        {
          "name": "Perairan Utara Taliabu",
          "url": "https://maritim.bmkg.go.id/cuaca/perairan/perairan-utara-taliabu",
          "coordinate": { "lat": -1.7500, "lon": 124.6667 }
        },
        {
          "name": "Perairan Selatan Taliabu",
          "url": "https://maritim.bmkg.go.id/cuaca/perairan/perairan-selatan-taliabu",
          "coordinate": { "lat": -2.0833, "lon": 124.6667 }
        }
      ]
    }
  ]
}